Time,header.seq,header.stamp.secs,header.stamp.nsecs,header.frame_id,status.status,status.service,latitude,longitude,altitude,position_covariance_0,position_covariance_1,position_covariance_2,position_covariance_3,position_covariance_4,position_covariance_5,position_covariance_6,position_covariance_7,position_covariance_8,position_covariance_type
1604559004.635388,24,1604559004,635387897,gps,0,1,22.338715725,114.26361304833334,96.07,13.2496,0.0,0.0,0.0,13.2496,0.0,0.0,0.0,211.9936,1
1604559004.835123,25,1604559004,835123062,gps,0,1,22.338715751666665,114.26361303166668,96.08,13.2496,0.0,0.0,0.0,13.2496,0.0,0.0,0.0,211.9936,1
1604559005.039567,26,1604559005,39566993,gps,0,1,22.338715801666662,114.263613145,96.102,13.2496,0.0,0.0,0.0,13.2496,0.0,0.0,0.0,211.9936,1
1604559005.235939,27,1604559005,235939025,gps,0,1,22.338715836666665,114.26361318666666,96.118,13.2496,0.0,0.0,0.0,13.2496,0.0,0.0,0.0,211.9936,1
1604559005.436401,28,1604559005,436400890,gps,0,1,22.338715945,114.26361315833331,96.131,13.2496,0.0,0.0,0.0,13.2496,0.0,0.0,0.0,211.9936,1
1604559005.636586,29,1604559005,636585950,gps,0,1,22.33871595,114.26361318666666,96.142,13.2496,0.0,0.0,0.0,13.2496,0.0,0.0,0.0,211.9936,1
1604559005.835665,30,1604559005,835664987,gps,0,1,22.33871595,114.26361323833332,96.154,13.2496,0.0,0.0,0.0,13.2496,0.0,0.0,0.0,211.9936,1
1604559006.040389,31,1604559006,40389060,gps,0,1,22.338715951666668,114.26361316666669,96.156,13.2496,0.0,0.0,0.0,13.2496,0.0,0.0,0.0,211.9936,1
1604559006.236583,32,1604559006,236582994,gps,0,1,22.33871587166667,114.26361321333331,96.17,13.2496,0.0,0.0,0.0,13.2496,0.0,0.0,0.0,211.9936,1
1604559006.434968,33,1604559006,434967994,gps,0,1,22.33871581,114.26361317833332,96.151,13.2496,0.0,0.0,0.0,13.2496,0.0,0.0,0.0,211.9936,1
1604559006.635309,34,1604559006,635308980,gps,0,1,22.33871590833333,114.263613195,96.182,13.2496,0.0,0.0,0.0,13.2496,0.0,0.0,0.0,211.9936,1
1604559006.83609,35,1604559006,836090087,gps,0,1,22.33871598833333,114.26361326333334,96.2,13.2496,0.0,0.0,0.0,13.2496,0.0,0.0,0.0,211.9936,1
1604559007.039018,36,1604559007,39017915,gps,0,1,22.33871605333333,114.263613305,96.221,13.2496,0.0,0.0,0.0,13.2496,0.0,0.0,0.0,211.9936,1
1604559007.235358,37,1604559007,235357999,gps,0,1,22.33871608833333,114.26361330833332,96.229,13.2496,0.0,0.0,0.0,13.2496,0.0,0.0,0.0,211.9936,1
1604559007.436185,38,1604559007,436184883,gps,0,1,22.33871607833333,114.26361335833332,96.247,13.2496,0.0,0.0,0.0,13.2496,0.0,0.0,0.0,211.9936,1
1604559007.635821,39,1604559007,635821104,gps,0,1,22.338716096666666,114.263613365,96.247,13.2496,0.0,0.0,0.0,13.2496,0.0,0.0,0.0,211.9936,1
1604559007.835628,40,1604559007,835628032,gps,0,1,22.33871614,114.26361352666666,96.278,13.2496,0.0,0.0,0.0,13.2496,0.0,0.0,0.0,211.9936,1
1604559008.040081,41,1604559008,40081024,gps,0,1,22.338716226666666,114.26361351666668,96.285,13.2496,0.0,0.0,0.0,13.2496,0.0,0.0,0.0,211.9936,1
1604559008.235734,42,1604559008,235733985,gps,0,1,22.338716198333334,114.263613505,96.278,13.2496,0.0,0.0,0.0,13.2496,0.0,0.0,0.0,211.9936,1
1604559008.43541,43,1604559008,435410022,gps,0,1,22.33871620333333,114.26361361166668,96.313,13.2496,0.0,0.0,0.0,13.2496,0.0,0.0,0.0,211.9936,1
1604559008.635743,44,1604559008,635742902,gps,0,1,22.338716206666668,114.26361356833333,96.308,13.2496,0.0,0.0,0.0,13.2496,0.0,0.0,0.0,211.9936,1
1604559008.835221,45,1604559008,835221052,gps,0,1,22.338716211666668,114.26361363666666,96.326,13.2496,0.0,0.0,0.0,13.2496,0.0,0.0,0.0,211.9936,1
1604559009.039608,46,1604559009,39608001,gps,0,1,22.338716181666666,114.26361356,96.326,13.2496,0.0,0.0,0.0,13.2496,0.0,0.0,0.0,211.9936,1
1604559009.236337,47,1604559009,236336946,gps,0,1,22.33871622833333,114.263613615,96.33,13.2496,0.0,0.0,0.0,13.2496,0.0,0.0,0.0,211.9936,1
1604559009.43604,48,1604559009,436039924,gps,0,1,22.338716161666667,114.26361357833332,96.345,13.2496,0.0,0.0,0.0,13.2496,0.0,0.0,0.0,211.9936,1
1604559009.63596,49,1604559009,635960102,gps,0,1,22.338716135,114.26361358833331,96.339,13.2496,0.0,0.0,0.0,13.2496,0.0,0.0,0.0,211.9936,1
1604559009.835965,50,1604559009,835964918,gps,0,1,22.338716116666667,114.26361357666669,96.357,13.2496,0.0,0.0,0.0,13.2496,0.0,0.0,0.0,211.9936,1
1604559010.039652,51,1604559010,39652109,gps,0,1,22.338716151666667,114.26361356166667,96.359,13.2496,0.0,0.0,0.0,13.2496,0.0,0.0,0.0,211.9936,1
1604559010.236698,52,1604559010,236697912,gps,0,1,22.33871615833333,114.263613535,96.368,13.2496,0.0,0.0,0.0,13.2496,0.0,0.0,0.0,211.9936,1
1604559010.437131,53,1604559010,437130928,gps,0,1,22.338716153333333,114.26361357166668,96.38,13.2496,0.0,0.0,0.0,13.2496,0.0,0.0,0.0,211.9936,1
1604559010.635374,54,1604559010,635374069,gps,0,1,22.338716131666665,114.263613525,96.375,13.2496,0.0,0.0,0.0,13.2496,0.0,0.0,0.0,211.9936,1
1604559010.835394,55,1604559010,835393905,gps,0,1,22.338716111666667,114.26361356166667,96.387,13.2496,0.0,0.0,0.0,13.2496,0.0,0.0,0.0,211.9936,1
1604559011.040274,56,1604559011,40273904,gps,0,1,22.33871608,114.26361352,96.387,13.2496,0.0,0.0,0.0,13.2496,0.0,0.0,0.0,211.9936,1
1604559011.235671,57,1604559011,235671043,gps,0,1,22.338716058333333,114.263613515,96.389,13.2496,0.0,0.0,0.0,13.2496,0.0,0.0,0.0,211.9936,1
1604559011.43636,58,1604559011,436359882,gps,0,1,22.338716051666665,114.26361347,96.407,13.2496,0.0,0.0,0.0,13.2496,0.0,0.0,0.0,211.9936,1
1604559011.636086,59,1604559011,636085987,gps,0,1,22.338716036666668,114.263613535,96.423,13.2496,0.0,0.0,0.0,13.2496,0.0,0.0,0.0,211.9936,1
1604559011.835608,60,1604559011,835608005,gps,0,1,22.338715961666665,114.26361349,96.416,13.2496,0.0,0.0,0.0,13.2496,0.0,0.0,0.0,211.9936,1
1604559012.040404,61,1604559012,40404081,gps,0,1,22.338715841666662,114.26361346666668,96.413,13.2496,0.0,0.0,0.0,13.2496,0.0,0.0,0.0,211.9936,1
1604559012.23682,62,1604559012,236819982,gps,0,1,22.338715896666667,114.26361352333332,96.45,13.2496,0.0,0.0,0.0,13.2496,0.0,0.0,0.0,211.9936,1
1604559012.435841,63,1604559012,435841083,gps,0,1,22.33871581833333,114.26361351,96.435,13.2496,0.0,0.0,0.0,13.2496,0.0,0.0,0.0,211.9936,1
1604559012.637293,64,1604559012,637293100,gps,0,1,22.338715796666666,114.26361346166668,96.455,13.2496,0.0,0.0,0.0,13.2496,0.0,0.0,0.0,211.9936,1
1604559012.835198,65,1604559012,835197925,gps,0,1,22.338715768333334,114.26361353,96.449,13.2496,0.0,0.0,0.0,13.2496,0.0,0.0,0.0,211.9936,1
1604559013.038582,66,1604559013,38582086,gps,0,1,22.33871577333333,114.263613555,96.475,13.2496,0.0,0.0,0.0,13.2496,0.0,0.0,0.0,211.9936,1
1604559013.235811,67,1604559013,235810995,gps,0,1,22.338715766666667,114.26361362333331,96.482,13.2496,0.0,0.0,0.0,13.2496,0.0,0.0,0.0,211.9936,1
1604559013.436661,68,1604559013,436661005,gps,0,1,22.338715728333334,114.26361347666666,96.463,13.2496,0.0,0.0,0.0,13.2496,0.0,0.0,0.0,211.9936,1
1604559013.635726,69,1604559013,635725975,gps,0,1,22.33871575,114.26361353666668,96.49,13.2496,0.0,0.0,0.0,13.2496,0.0,0.0,0.0,211.9936,1
1604559013.835112,70,1604559013,835112094,gps,0,1,22.33871573,114.26361360166666,96.505,13.2496,0.0,0.0,0.0,13.2496,0.0,0.0,0.0,211.9936,1
1604559014.040049,71,1604559014,40049076,gps,0,1,22.33871578666667,114.26361365333334,96.525,13.2496,0.0,0.0,0.0,13.2496,0.0,0.0,0.0,211.9936,1
1604559014.235837,72,1604559014,235836982,gps,0,1,22.338715776666668,114.26361367666668,96.527,13.2496,0.0,0.0,0.0,13.2496,0.0,0.0,0.0,211.9936,1
1604559014.435502,73,1604559014,435502052,gps,0,1,22.338715821666668,114.26361377,96.555,13.2496,0.0,0.0,0.0,13.2496,0.0,0.0,0.0,211.9936,1
1604559014.635905,74,1604559014,635905027,gps,0,1,22.33871585833333,114.26361372833334,96.574,13.2496,0.0,0.0,0.0,13.2496,0.0,0.0,0.0,211.9936,1
1604559014.835274,75,1604559014,835273981,gps,0,1,22.33871591833333,114.26361385166666,96.588,13.2496,0.0,0.0,0.0,13.2496,0.0,0.0,0.0,211.9936,1
1604559015.038668,76,1604559015,38667917,gps,0,1,22.338715973333333,114.26361378,96.608,13.2496,0.0,0.0,0.0,13.2496,0.0,0.0,0.0,211.9936,1
1604559015.235517,77,1604559015,235517024,gps,0,1,22.33871597,114.26361386333332,96.606,13.2496,0.0,0.0,0.0,13.2496,0.0,0.0,0.0,211.9936,1
1604559015.434636,78,1604559015,434636116,gps,0,1,22.33871587833333,114.26361380333331,96.617,13.2496,0.0,0.0,0.0,13.2496,0.0,0.0,0.0,211.9936,1
1604559015.635502,79,1604559015,635502099,gps,0,1,22.33871552333333,114.26361375,96.625,13.2496,0.0,0.0,0.0,13.2496,0.0,0.0,0.0,211.9936,1
1604559015.835593,80,1604559015,835592985,gps,0,1,22.33871506833333,114.263613615,96.628,13.2496,0.0,0.0,0.0,13.2496,0.0,0.0,0.0,211.9936,1
1604559016.039202,81,1604559016,39201974,gps,0,1,22.33871446,114.26361372333334,96.635,13.2496,0.0,0.0,0.0,13.2496,0.0,0.0,0.0,211.9936,1
1604559016.235683,82,1604559016,235682964,gps,0,1,22.338713601666665,114.26361363166669,96.636,13.2496,0.0,0.0,0.0,13.2496,0.0,0.0,0.0,211.9936,1
1604559016.435641,83,1604559016,435641050,gps,0,1,22.338712936666667,114.26361360166666,96.669,13.2496,0.0,0.0,0.0,13.2496,0.0,0.0,0.0,211.9936,1
1604559016.635725,84,1604559016,635725021,gps,0,1,22.338711893333333,114.26361366,96.701,13.2496,0.0,0.0,0.0,13.2496,0.0,0.0,0.0,211.9936,1
1604559016.835193,85,1604559016,835192918,gps,0,1,22.33871075,114.26361343833334,96.679,13.2496,0.0,0.0,0.0,13.2496,0.0,0.0,0.0,211.9936,1
1604559017.039956,86,1604559017,39956092,gps,0,1,22.338709476666665,114.26361343,96.682,13.2496,0.0,0.0,0.0,13.2496,0.0,0.0,0.0,211.9936,1
1604559017.235147,87,1604559017,235146999,gps,0,1,22.33870808,114.26361330833332,96.67,13.2496,0.0,0.0,0.0,13.2496,0.0,0.0,0.0,211.9936,1
1604559017.436247,88,1604559017,436247110,gps,0,1,22.338706646666665,114.263613215,96.692,13.2496,0.0,0.0,0.0,13.2496,0.0,0.0,0.0,211.9936,1
1604559017.637329,89,1604559017,637329101,gps,0,1,22.338705118333333,114.263613335,96.721,13.2496,0.0,0.0,0.0,13.2496,0.0,0.0,0.0,211.9936,1
1604559017.835427,90,1604559017,835427045,gps,0,1,22.338703351666663,114.26361337833332,96.708,13.2496,0.0,0.0,0.0,13.2496,0.0,0.0,0.0,211.9936,1
1604559018.039808,91,1604559018,39808034,gps,0,1,22.338701485,114.26361337666668,96.729,13.2496,0.0,0.0,0.0,13.2496,0.0,0.0,0.0,211.9936,1
1604559018.236195,92,1604559018,236195087,gps,0,1,22.338699453333334,114.26361341166668,96.777,13.2496,0.0,0.0,0.0,13.2496,0.0,0.0,0.0,211.9936,1
1604559018.43604,93,1604559018,436039924,gps,0,1,22.338697406666668,114.26361361333332,96.776,13.2496,0.0,0.0,0.0,13.2496,0.0,0.0,0.0,211.9936,1
1604559018.63558,94,1604559018,635580062,gps,0,1,22.33869501,114.26361375666669,96.805,13.2496,0.0,0.0,0.0,13.2496,0.0,0.0,0.0,211.9936,1
1604559018.835367,95,1604559018,835366964,gps,0,1,22.338692618333333,114.26361386333332,96.806,13.2496,0.0,0.0,0.0,13.2496,0.0,0.0,0.0,211.9936,1
1604559019.038592,96,1604559019,38592100,gps,0,1,22.33869024,114.263614035,96.822,13.2496,0.0,0.0,0.0,13.2496,0.0,0.0,0.0,211.9936,1
1604559019.235259,97,1604559019,235259056,gps,0,1,22.33868774,114.26361439666668,96.856,13.2496,0.0,0.0,0.0,13.2496,0.0,0.0,0.0,211.9936,1
1604559019.435231,98,1604559019,435230970,gps,0,1,22.33868521833333,114.26361435833331,96.874,13.2496,0.0,0.0,0.0,13.2496,0.0,0.0,0.0,211.9936,1
1604559019.63588,99,1604559019,635879993,gps,0,1,22.338682646666665,114.26361453833331,96.912,13.2496,0.0,0.0,0.0,13.2496,0.0,0.0,0.0,211.9936,1
1604559019.834861,100,1604559019,834861040,gps,0,1,22.338680055,114.26361477666669,96.921,13.2496,0.0,0.0,0.0,13.2496,0.0,0.0,0.0,211.9936,1
1604559020.040116,101,1604559020,40116071,gps,0,1,22.338677351666668,114.26361492,96.902,13.2496,0.0,0.0,0.0,13.2496,0.0,0.0,0.0,211.9936,1
1604559020.235226,102,1604559020,235225915,gps,0,1,22.338674691666668,114.26361520666669,96.931,13.2496,0.0,0.0,0.0,13.2496,0.0,0.0,0.0,211.9936,1
1604559020.434831,103,1604559020,434830904,gps,0,1,22.338671906666665,114.26361526166669,96.914,13.2496,0.0,0.0,0.0,13.2496,0.0,0.0,0.0,211.9936,1
1604559020.63563,104,1604559020,635629892,gps,0,1,22.338669095,114.26361552833332,96.913,13.2496,0.0,0.0,0.0,13.2496,0.0,0.0,0.0,211.9936,1
1604559020.834605,105,1604559020,834604978,gps,0,1,22.33866606,114.263615595,96.909,13.2496,0.0,0.0,0.0,13.2496,0.0,0.0,0.0,211.9936,1
1604559021.038582,106,1604559021,38582086,gps,0,1,22.33866316,114.26361578833334,96.909,13.2496,0.0,0.0,0.0,13.2496,0.0,0.0,0.0,211.9936,1
1604559021.236194,107,1604559021,236193895,gps,0,1,22.338660056666665,114.26361596,96.918,13.2496,0.0,0.0,0.0,13.2496,0.0,0.0,0.0,211.9936,1
1604559021.434711,108,1604559021,434710979,gps,0,1,22.33865673,114.26361620333331,96.939,13.2496,0.0,0.0,0.0,13.2496,0.0,0.0,0.0,211.9936,1
1604559021.635311,109,1604559021,635310888,gps,0,1,22.33865325833333,114.263616535,96.908,13.2496,0.0,0.0,0.0,13.2496,0.0,0.0,0.0,211.9936,1
1604559021.835223,110,1604559021,835222959,gps,0,1,22.338649853333333,114.26361654,96.902,13.2496,0.0,0.0,0.0,13.2496,0.0,0.0,0.0,211.9936,1
1604559022.038484,111,1604559022,38484096,gps,0,1,22.338646301666667,114.26361672833332,96.935,13.2496,0.0,0.0,0.0,13.2496,0.0,0.0,0.0,211.9936,1
1604559022.235294,112,1604559022,235294103,gps,0,1,22.338642561666667,114.26361690833332,96.948,13.2496,0.0,0.0,0.0,13.2496,0.0,0.0,0.0,211.9936,1
1604559022.435376,113,1604559022,435375928,gps,0,1,22.338638695,114.26361709166666,96.967,13.2496,0.0,0.0,0.0,13.2496,0.0,0.0,0.0,211.9936,1
1604559022.635225,114,1604559022,635225057,gps,0,1,22.33863475333333,114.26361735333332,96.987,13.2496,0.0,0.0,0.0,13.2496,0.0,0.0,0.0,211.9936,1
1604559022.834756,115,1604559022,834755897,gps,0,1,22.338630825,114.26361762666669,97.005,13.2496,0.0,0.0,0.0,13.2496,0.0,0.0,0.0,211.9936,1
1604559023.039256,116,1604559023,39256095,gps,0,1,22.338626663333333,114.26361797166666,97.034,13.2496,0.0,0.0,0.0,13.2496,0.0,0.0,0.0,211.9936,1
1604559023.236097,117,1604559023,236097097,gps,0,1,22.33862268833333,114.263618125,97.042,13.2496,0.0,0.0,0.0,13.2496,0.0,0.0,0.0,211.9936,1
1604559023.434272,118,1604559023,434272050,gps,0,1,22.33861831833333,114.26361816,97.023,13.2496,0.0,0.0,0.0,13.2496,0.0,0.0,0.0,211.9936,1
1604559023.634845,119,1604559023,634845018,gps,0,1,22.33861393666667,114.263618345,97.021,13.2496,0.0,0.0,0.0,13.2496,0.0,0.0,0.0,211.9936,1
1604559023.833862,120,1604559023,833862066,gps,0,1,22.33860967,114.26361859,97.021,13.2496,0.0,0.0,0.0,13.2496,0.0,0.0,0.0,211.9936,1
1604559024.038321,121,1604559024,38321018,gps,0,1,22.338605551666667,114.26361892833332,97.085,13.2496,0.0,0.0,0.0,13.2496,0.0,0.0,0.0,211.9936,1
1604559024.235296,122,1604559024,235296010,gps,0,1,22.338601295,114.26361928833332,97.131,13.2496,0.0,0.0,0.0,13.2496,0.0,0.0,0.0,211.9936,1
1604559024.433611,123,1604559024,433610916,gps,0,1,22.338596911666667,114.26361951666668,97.15,21.5296,0.0,0.0,0.0,21.5296,0.0,0.0,0.0,344.4736,1
1604559024.634493,124,1604559024,634493112,gps,0,1,22.33859258833333,114.26361975833332,97.151,21.5296,0.0,0.0,0.0,21.5296,0.0,0.0,0.0,344.4736,1
1604559024.83342,125,1604559024,833420038,gps,0,1,22.33858839333333,114.26362014833332,97.198,21.5296,0.0,0.0,0.0,21.5296,0.0,0.0,0.0,344.4736,1
1604559025.037953,126,1604559025,37952899,gps,0,1,22.33858409833333,114.26362039,97.164,21.5296,0.0,0.0,0.0,21.5296,0.0,0.0,0.0,344.4736,1
1604559025.234164,127,1604559025,234163999,gps,0,1,22.338579778333333,114.26362069833333,97.199,21.5296,0.0,0.0,0.0,21.5296,0.0,0.0,0.0,344.4736,1
1604559025.434278,128,1604559025,434278011,gps,0,1,22.338575341666665,114.26362090166668,97.2,21.5296,0.0,0.0,0.0,21.5296,0.0,0.0,0.0,344.4736,1
1604559025.633729,129,1604559025,633728981,gps,0,1,22.33857078833333,114.26362099833334,97.2,21.5296,0.0,0.0,0.0,21.5296,0.0,0.0,0.0,344.4736,1
1604559025.833406,130,1604559025,833405971,gps,0,1,22.338566336666663,114.26362117,97.192,21.5296,0.0,0.0,0.0,21.5296,0.0,0.0,0.0,344.4736,1
1604559026.039019,131,1604559026,39019107,gps,0,1,22.33856181,114.26362116666668,97.204,21.5296,0.0,0.0,0.0,21.5296,0.0,0.0,0.0,344.4736,1
1604559026.234703,132,1604559026,234703063,gps,0,1,22.33855739,114.26362136166668,97.231,22.2784,0.0,0.0,0.0,22.2784,0.0,0.0,0.0,356.4544,1
1604559026.434657,133,1604559026,434657096,gps,0,1,22.338552866666667,114.263621525,97.225,21.5296,0.0,0.0,0.0,21.5296,0.0,0.0,0.0,344.4736,1
1604559026.634506,134,1604559026,634505987,gps,0,1,22.338548133333333,114.26362176833334,97.205,21.5296,0.0,0.0,0.0,21.5296,0.0,0.0,0.0,344.4736,1
1604559026.833557,135,1604559026,833556890,gps,0,1,22.33854355833333,114.26362190666669,97.229,21.5296,0.0,0.0,0.0,21.5296,0.0,0.0,0.0,344.4736,1
1604559027.037984,136,1604559027,37983894,gps,0,1,22.338538898333333,114.2636219,97.237,21.5296,0.0,0.0,0.0,21.5296,0.0,0.0,0.0,344.4736,1
1604559027.234867,137,1604559027,234867095,gps,0,1,22.338534145,114.26362183833334,97.201,21.5296,0.0,0.0,0.0,21.5296,0.0,0.0,0.0,344.4736,1
1604559027.434295,138,1604559027,434294939,gps,0,1,22.338529396666665,114.263621855,97.223,21.5296,0.0,0.0,0.0,21.5296,0.0,0.0,0.0,344.4736,1
1604559027.634698,139,1604559027,634697914,gps,0,1,22.338524455,114.26362184666668,97.184,21.5296,0.0,0.0,0.0,21.5296,0.0,0.0,0.0,344.4736,1
1604559027.834057,140,1604559027,834057092,gps,0,1,22.338519406666663,114.26362185166668,97.199,21.5296,0.0,0.0,0.0,21.5296,0.0,0.0,0.0,344.4736,1
1604559028.037577,141,1604559028,37576913,gps,0,1,22.338514445,114.26362183,97.176,21.5296,0.0,0.0,0.0,21.5296,0.0,0.0,0.0,344.4736,1
1604559028.234531,142,1604559028,234530925,gps,0,1,22.338509365,114.26362206333332,97.157,21.5296,0.0,0.0,0.0,21.5296,0.0,0.0,0.0,344.4736,1
1604559028.434483,143,1604559028,434483051,gps,0,1,22.338504516666667,114.26362167,97.156,21.5296,0.0,0.0,0.0,21.5296,0.0,0.0,0.0,344.4736,1
1604559028.634269,144,1604559028,634268999,gps,0,1,22.33849991,114.26362147166668,97.175,21.5296,0.0,0.0,0.0,21.5296,0.0,0.0,0.0,344.4736,1
1604559028.833472,145,1604559028,833472013,gps,0,1,22.338495191666667,114.26362161333331,97.167,48.4416,0.0,0.0,0.0,48.4416,0.0,0.0,0.0,775.0656,1
1604559029.037963,146,1604559029,37962913,gps,0,1,22.338490545,114.26362182666666,97.181,48.4416,0.0,0.0,0.0,48.4416,0.0,0.0,0.0,775.0656,1
1604559029.233557,147,1604559029,233556985,gps,0,1,22.338486045,114.26362161666668,97.191,48.4416,0.0,0.0,0.0,48.4416,0.0,0.0,0.0,775.0656,1
1604559029.433231,148,1604559029,433231115,gps,0,1,22.33848132,114.26362174666669,97.178,48.4416,0.0,0.0,0.0,48.4416,0.0,0.0,0.0,775.0656,1
1604559029.63428,149,1604559029,634279966,gps,0,1,22.33847691833333,114.26362157666668,97.167,48.4416,0.0,0.0,0.0,48.4416,0.0,0.0,0.0,775.0656,1
1604559029.832555,150,1604559029,832555055,gps,0,1,22.338472045,114.263621535,97.149,48.4416,0.0,0.0,0.0,48.4416,0.0,0.0,0.0,775.0656,1
1604559030.036375,151,1604559030,36375045,gps,0,1,22.338467295,114.26362126333332,97.109,48.4416,0.0,0.0,0.0,48.4416,0.0,0.0,0.0,775.0656,1
1604559030.234199,152,1604559030,234199047,gps,0,1,22.33846252833333,114.263621535,97.108,48.4416,0.0,0.0,0.0,48.4416,0.0,0.0,0.0,775.0656,1
1604559030.43338,153,1604559030,433379888,gps,0,1,22.33845784333333,114.26362160166669,97.114,48.4416,0.0,0.0,0.0,48.4416,0.0,0.0,0.0,775.0656,1
1604559030.633705,154,1604559030,633704900,gps,0,1,22.338453146666662,114.26362122833334,97.06,48.4416,0.0,0.0,0.0,48.4416,0.0,0.0,0.0,775.0656,1
1604559030.833627,155,1604559030,833626985,gps,0,1,22.33844840833333,114.26362142166668,97.075,48.4416,0.0,0.0,0.0,48.4416,0.0,0.0,0.0,775.0656,1
1604559031.037748,156,1604559031,37748098,gps,0,1,22.33844363333333,114.26362148666666,97.008,48.4416,0.0,0.0,0.0,48.4416,0.0,0.0,0.0,775.0656,1
1604559031.23404,157,1604559031,234040021,gps,0,1,22.338439121666667,114.26362175666668,96.947,48.4416,0.0,0.0,0.0,48.4416,0.0,0.0,0.0,775.0656,1
1604559031.434026,158,1604559031,434026002,gps,0,1,22.33843452833333,114.2636219,96.919,48.4416,0.0,0.0,0.0,48.4416,0.0,0.0,0.0,775.0656,1
1604559031.634032,159,1604559031,634032011,gps,0,1,22.33842992,114.26362204,96.868,48.4416,0.0,0.0,0.0,48.4416,0.0,0.0,0.0,775.0656,1
1604559031.834147,160,1604559031,834146976,gps,0,1,22.338425463333333,114.26362233833332,96.883,48.4416,0.0,0.0,0.0,48.4416,0.0,0.0,0.0,775.0656,1
1604559032.039113,161,1604559032,39113044,gps,0,1,22.33842097333333,114.26362246833334,96.848,48.4416,0.0,0.0,0.0,48.4416,0.0,0.0,0.0,775.0656,1
1604559032.234704,162,1604559032,234704017,gps,0,1,22.338416608333333,114.263623065,96.827,48.4416,0.0,0.0,0.0,48.4416,0.0,0.0,0.0,775.0656,1
1604559032.434239,163,1604559032,434238910,gps,0,1,22.338412116666667,114.26362370333334,96.837,48.4416,0.0,0.0,0.0,48.4416,0.0,0.0,0.0,775.0656,1
1604559032.63415,164,1604559032,634150028,gps,0,1,22.338407605,114.26362427833334,96.797,48.4416,0.0,0.0,0.0,48.4416,0.0,0.0,0.0,775.0656,1
1604559032.833502,165,1604559032,833502054,gps,0,1,22.338403206666666,114.26362446166668,96.749,48.4416,0.0,0.0,0.0,48.4416,0.0,0.0,0.0,775.0656,1
1604559033.037953,166,1604559033,37952899,gps,0,1,22.338398606666665,114.26362542833331,96.764,48.4416,0.0,0.0,0.0,48.4416,0.0,0.0,0.0,775.0656,1
1604559033.235337,167,1604559033,235337018,gps,0,1,22.338394073333333,114.263626165,96.744,48.4416,0.0,0.0,0.0,48.4416,0.0,0.0,0.0,775.0656,1
1604559033.434064,168,1604559033,434063911,gps,0,1,22.3383898,114.26362739166666,96.743,48.4416,0.0,0.0,0.0,48.4416,0.0,0.0,0.0,775.0656,1
1604559033.634347,169,1604559033,634346961,gps,0,1,22.33838526,114.26362843833331,96.722,48.4416,0.0,0.0,0.0,48.4416,0.0,0.0,0.0,775.0656,1
1604559033.834116,170,1604559033,834115982,gps,0,1,22.338380846666663,114.26362945,96.733,48.4416,0.0,0.0,0.0,48.4416,0.0,0.0,0.0,775.0656,1
1604559034.037292,171,1604559034,37292003,gps,0,1,22.33837651833333,114.26363094,96.686,48.4416,0.0,0.0,0.0,48.4416,0.0,0.0,0.0,775.0656,1
1604559034.234046,172,1604559034,234045982,gps,0,1,22.33837212,114.26363251666666,96.702,48.4416,0.0,0.0,0.0,48.4416,0.0,0.0,0.0,775.0656,1
1604559034.434017,173,1604559034,434016942,gps,0,1,22.33836777333333,114.26363374333332,96.724,48.4416,0.0,0.0,0.0,48.4416,0.0,0.0,0.0,775.0656,1
1604559034.633494,174,1604559034,633493900,gps,0,1,22.33836352,114.26363512166668,96.707,48.4416,0.0,0.0,0.0,48.4416,0.0,0.0,0.0,775.0656,1
1604559034.833524,175,1604559034,833523988,gps,0,1,22.338359061666665,114.26363649666666,96.675,48.4416,0.0,0.0,0.0,48.4416,0.0,0.0,0.0,775.0656,1
1604559035.036725,176,1604559035,36725044,gps,0,1,22.338354616666667,114.26363825666668,96.67,48.4416,0.0,0.0,0.0,48.4416,0.0,0.0,0.0,775.0656,1
1604559035.232724,177,1604559035,232723951,gps,0,1,22.338350441666663,114.26363980333332,96.633,54.1696,0.0,0.0,0.0,54.1696,0.0,0.0,0.0,866.7136,1
1604559035.432287,178,1604559035,432286977,gps,0,1,22.33834612,114.26364165833331,96.654,67.24,0.0,0.0,0.0,67.24,0.0,0.0,0.0,1075.84,1
1604559035.63248,179,1604559035,632479906,gps,0,1,22.338341776666667,114.26364302,96.656,67.24,0.0,0.0,0.0,67.24,0.0,0.0,0.0,1075.84,1
1604559035.831985,180,1604559035,831984996,gps,0,1,22.338337581666668,114.26364484166666,96.638,67.24,0.0,0.0,0.0,67.24,0.0,0.0,0.0,1075.84,1
1604559036.036662,181,1604559036,36662101,gps,0,1,22.338333325,114.26364634833334,96.651,54.760000000000005,0.0,0.0,0.0,54.760000000000005,0.0,0.0,0.0,876.1600000000001,1
1604559036.233942,182,1604559036,233942031,gps,0,1,22.338329103333333,114.26364830833332,96.634,54.760000000000005,0.0,0.0,0.0,54.760000000000005,0.0,0.0,0.0,876.1600000000001,1
1604559036.43309,183,1604559036,433089971,gps,0,1,22.338325735,114.26365002666668,96.783,54.760000000000005,0.0,0.0,0.0,54.760000000000005,0.0,0.0,0.0,876.1600000000001,1
1604559036.633854,184,1604559036,633853912,gps,0,1,22.33832156,114.26365147166666,96.731,54.760000000000005,0.0,0.0,0.0,54.760000000000005,0.0,0.0,0.0,876.1600000000001,1
1604559036.833454,185,1604559036,833453893,gps,0,1,22.338317463333333,114.26365330833332,96.766,54.760000000000005,0.0,0.0,0.0,54.760000000000005,0.0,0.0,0.0,876.1600000000001,1
1604559037.037041,186,1604559037,37040948,gps,0,1,22.338313536666668,114.26365544666666,96.746,54.760000000000005,0.0,0.0,0.0,54.760000000000005,0.0,0.0,0.0,876.1600000000001,1
1604559037.233624,187,1604559037,233623981,gps,0,1,22.33830947333333,114.26365705,96.803,54.760000000000005,0.0,0.0,0.0,54.760000000000005,0.0,0.0,0.0,876.1600000000001,1
1604559037.434043,188,1604559037,434042930,gps,0,1,22.338305321666667,114.26365843166668,96.808,54.760000000000005,0.0,0.0,0.0,54.760000000000005,0.0,0.0,0.0,876.1600000000001,1
1604559037.633315,189,1604559037,633315086,gps,0,1,22.338301435,114.26366026666666,96.832,54.760000000000005,0.0,0.0,0.0,54.760000000000005,0.0,0.0,0.0,876.1600000000001,1
1604559037.832537,190,1604559037,832536935,gps,0,1,22.338297266666668,114.26366157333334,96.853,54.760000000000005,0.0,0.0,0.0,54.760000000000005,0.0,0.0,0.0,876.1600000000001,1
1604559038.038134,191,1604559038,38134098,gps,0,1,22.33829322833333,114.26366338,96.891,54.760000000000005,0.0,0.0,0.0,54.760000000000005,0.0,0.0,0.0,876.1600000000001,1
1604559038.234245,192,1604559038,234245061,gps,0,1,22.33828941166667,114.26366454,96.883,54.760000000000005,0.0,0.0,0.0,54.760000000000005,0.0,0.0,0.0,876.1600000000001,1
1604559038.434321,193,1604559038,434320926,gps,0,1,22.338285648333333,114.26366601333334,96.878,54.760000000000005,0.0,0.0,0.0,54.760000000000005,0.0,0.0,0.0,876.1600000000001,1
1604559038.633708,194,1604559038,633708000,gps,0,1,22.33828175833333,114.26366742333332,96.899,54.760000000000005,0.0,0.0,0.0,54.760000000000005,0.0,0.0,0.0,876.1600000000001,1
1604559038.832538,195,1604559038,832537889,gps,0,1,22.338278046666662,114.26366827166666,96.942,67.24,0.0,0.0,0.0,67.24,0.0,0.0,0.0,1075.84,1
1604559039.037196,196,1604559039,37195920,gps,0,1,22.338274245,114.26366936833334,96.914,67.24,0.0,0.0,0.0,67.24,0.0,0.0,0.0,1075.84,1
1604559039.234512,197,1604559039,234512090,gps,0,1,22.33827052333333,114.26367096833332,96.904,67.24,0.0,0.0,0.0,67.24,0.0,0.0,0.0,1075.84,1
1604559039.433688,198,1604559039,433687925,gps,0,1,22.338266763333333,114.26367238833332,96.852,67.24,0.0,0.0,0.0,67.24,0.0,0.0,0.0,1075.84,1
1604559039.634071,199,1604559039,634071111,gps,0,1,22.338262978333333,114.26367368666666,96.864,67.24,0.0,0.0,0.0,67.24,0.0,0.0,0.0,1075.84,1
1604559039.833775,200,1604559039,833775043,gps,0,1,22.33825953,114.26367510166666,96.924,67.24,0.0,0.0,0.0,67.24,0.0,0.0,0.0,1075.84,1
1604559040.037548,201,1604559040,37548065,gps,0,1,22.33825622166667,114.263676285,96.982,67.24,0.0,0.0,0.0,67.24,0.0,0.0,0.0,1075.84,1
1604559040.234417,202,1604559040,234416961,gps,0,1,22.338253325,114.26367701833334,97.044,67.24,0.0,0.0,0.0,67.24,0.0,0.0,0.0,1075.84,1
1604559040.434526,203,1604559040,434525966,gps,0,1,22.338250246666668,114.26367806166668,97.059,67.24,0.0,0.0,0.0,67.24,0.0,0.0,0.0,1075.84,1
1604559040.634314,204,1604559040,634314060,gps,0,1,22.338247745,114.26367858833332,97.018,67.24,0.0,0.0,0.0,67.24,0.0,0.0,0.0,1075.84,1
1604559040.83412,205,1604559040,834120035,gps,0,1,22.338245161666663,114.26367969,97.03,67.24,0.0,0.0,0.0,67.24,0.0,0.0,0.0,1075.84,1
1604559041.0393,206,1604559041,39299964,gps,0,1,22.33824259,114.26368024,97.056,67.24,0.0,0.0,0.0,67.24,0.0,0.0,0.0,1075.84,1
1604559041.233804,207,1604559041,233803987,gps,0,1,22.3382404,114.26368112166666,97.035,67.24,0.0,0.0,0.0,67.24,0.0,0.0,0.0,1075.84,1
1604559041.435155,208,1604559041,435154914,gps,0,1,22.338237981666666,114.263681345,97.195,67.24,0.0,0.0,0.0,67.24,0.0,0.0,0.0,1075.84,1
1604559041.63433,209,1604559041,634330034,gps,0,1,22.33823556833333,114.263681745,97.236,67.24,0.0,0.0,0.0,67.24,0.0,0.0,0.0,1075.84,1
1604559041.833266,210,1604559041,833266019,gps,0,1,22.338233355,114.26368212833331,97.254,67.24,0.0,0.0,0.0,67.24,0.0,0.0,0.0,1075.84,1
1604559042.037616,211,1604559042,37616014,gps,0,1,22.33823114333333,114.26368325666668,97.206,67.24,0.0,0.0,0.0,67.24,0.0,0.0,0.0,1075.84,1
1604559042.234539,212,1604559042,234539031,gps,0,1,22.33822896,114.263683595,97.307,67.24,0.0,0.0,0.0,67.24,0.0,0.0,0.0,1075.84,1
1604559042.435398,213,1604559042,435398101,gps,0,1,22.33822667,114.26368389833333,97.32,67.24,0.0,0.0,0.0,67.24,0.0,0.0,0.0,1075.84,1
1604559042.63431,214,1604559042,634310007,gps,0,1,22.338224351666668,114.26368417333332,97.37,67.24,0.0,0.0,0.0,67.24,0.0,0.0,0.0,1075.84,1
1604559042.833774,215,1604559042,833774089,gps,0,1,22.338221995,114.26368459833331,97.446,67.24,0.0,0.0,0.0,67.24,0.0,0.0,0.0,1075.84,1
1604559043.037037,216,1604559043,37036895,gps,0,1,22.338219601666665,114.26368481333331,97.518,67.24,0.0,0.0,0.0,67.24,0.0,0.0,0.0,1075.84,1
1604559043.234436,217,1604559043,234436035,gps,0,1,22.338217195,114.26368518666666,97.579,54.1696,0.0,0.0,0.0,54.1696,0.0,0.0,0.0,866.7136,1
1604559043.4347,218,1604559043,434700012,gps,0,1,22.338214535,114.26368584333332,97.628,54.1696,0.0,0.0,0.0,54.1696,0.0,0.0,0.0,866.7136,1
1604559043.634595,219,1604559043,634594917,gps,0,1,22.338211956666665,114.26368672333334,97.506,54.1696,0.0,0.0,0.0,54.1696,0.0,0.0,0.0,866.7136,1
1604559043.834693,220,1604559043,834692955,gps,0,1,22.338209,114.26368731666666,97.501,54.1696,0.0,0.0,0.0,54.1696,0.0,0.0,0.0,866.7136,1
1604559044.038837,221,1604559044,38836956,gps,0,1,22.33820597833333,114.263687875,97.505,54.1696,0.0,0.0,0.0,54.1696,0.0,0.0,0.0,866.7136,1
1604559044.235454,222,1604559044,235454082,gps,0,1,22.33820302333333,114.26368840333332,97.51,54.1696,0.0,0.0,0.0,54.1696,0.0,0.0,0.0,866.7136,1
1604559044.434559,223,1604559044,434559106,gps,0,1,22.33819992833333,114.26368925833332,97.595,24.2064,0.0,0.0,0.0,24.2064,0.0,0.0,0.0,387.3024,1
1604559044.63462,224,1604559044,634619951,gps,0,1,22.338196831666668,114.26368956833332,97.619,54.1696,0.0,0.0,0.0,54.1696,0.0,0.0,0.0,866.7136,1
1604559044.833994,225,1604559044,833993911,gps,0,1,22.33819379333333,114.26369055166668,97.525,54.1696,0.0,0.0,0.0,54.1696,0.0,0.0,0.0,866.7136,1
1604559045.039429,226,1604559045,39428949,gps,0,1,22.33819076,114.2636907,97.588,54.1696,0.0,0.0,0.0,54.1696,0.0,0.0,0.0,866.7136,1
1604559045.235132,227,1604559045,235131978,gps,0,1,22.338187616666666,114.26369148333332,97.547,54.1696,0.0,0.0,0.0,54.1696,0.0,0.0,0.0,866.7136,1
1604559045.434109,228,1604559045,434108972,gps,0,1,22.338184441666662,114.26369190833331,97.516,54.1696,0.0,0.0,0.0,54.1696,0.0,0.0,0.0,866.7136,1
1604559045.635237,229,1604559045,635236978,gps,0,1,22.33818125,114.263692065,97.477,54.1696,0.0,0.0,0.0,54.1696,0.0,0.0,0.0,866.7136,1
1604559045.834957,230,1604559045,834956884,gps,0,1,22.33817784333333,114.26369264333331,97.241,54.1696,0.0,0.0,0.0,54.1696,0.0,0.0,0.0,866.7136,1
1604559046.037714,231,1604559046,37714004,gps,0,1,22.33817455,114.26369326,97.047,54.1696,0.0,0.0,0.0,54.1696,0.0,0.0,0.0,866.7136,1
1604559046.23527,232,1604559046,235270023,gps,0,1,22.338171151666668,114.26369382666668,97.012,54.1696,0.0,0.0,0.0,54.1696,0.0,0.0,0.0,866.7136,1
1604559046.434855,233,1604559046,434854984,gps,0,1,22.338167775,114.26369396833331,97.137,54.1696,0.0,0.0,0.0,54.1696,0.0,0.0,0.0,866.7136,1
1604559046.633562,234,1604559046,633562088,gps,0,1,22.33816463833333,114.26369416166666,97.092,54.1696,0.0,0.0,0.0,54.1696,0.0,0.0,0.0,866.7136,1
1604559046.833864,235,1604559046,833863973,gps,0,1,22.33816154166667,114.26369429,97.18,54.1696,0.0,0.0,0.0,54.1696,0.0,0.0,0.0,866.7136,1
1604559047.03748,236,1604559047,37480115,gps,0,1,22.33815796,114.26369481333332,97.233,54.1696,0.0,0.0,0.0,54.1696,0.0,0.0,0.0,866.7136,1
1604559047.234408,237,1604559047,234407901,gps,0,1,22.33815402666667,114.263695255,97.007,71.91040000000001,0.0,0.0,0.0,71.91040000000001,0.0,0.0,0.0,1150.5664000000002,1
1604559047.434385,238,1604559047,434385061,gps,0,1,22.33815038333333,114.263694885,97.114,71.91040000000001,0.0,0.0,0.0,71.91040000000001,0.0,0.0,0.0,1150.5664000000002,1
1604559047.634561,239,1604559047,634561061,gps,0,1,22.33814592333333,114.263694575,97.098,71.91040000000001,0.0,0.0,0.0,71.91040000000001,0.0,0.0,0.0,1150.5664000000002,1
1604559047.832697,240,1604559047,832696914,gps,0,1,22.338141871666668,114.26369438,97.133,71.91040000000001,0.0,0.0,0.0,71.91040000000001,0.0,0.0,0.0,1150.5664000000002,1
1604559048.037362,241,1604559048,37362098,gps,0,1,22.3381384,114.26369433833334,97.06,71.91040000000001,0.0,0.0,0.0,71.91040000000001,0.0,0.0,0.0,1150.5664000000002,1
1604559048.235078,242,1604559048,235078096,gps,0,1,22.33813388333333,114.26369429666669,96.955,71.91040000000001,0.0,0.0,0.0,71.91040000000001,0.0,0.0,0.0,1150.5664000000002,1
1604559048.433306,243,1604559048,433305978,gps,0,1,22.338129371666668,114.26369382333333,96.877,71.91040000000001,0.0,0.0,0.0,71.91040000000001,0.0,0.0,0.0,1150.5664000000002,1
1604559048.633206,244,1604559048,633205890,gps,0,1,22.33812495333333,114.26369358666666,96.881,54.1696,0.0,0.0,0.0,54.1696,0.0,0.0,0.0,866.7136,1
1604559048.832552,245,1604559048,832551956,gps,0,1,22.338119981666665,114.26369330666668,96.873,54.1696,0.0,0.0,0.0,54.1696,0.0,0.0,0.0,866.7136,1
1604559049.035767,246,1604559049,35767078,gps,0,1,22.338113596666663,114.26369345166668,96.98,67.24,0.0,0.0,0.0,67.24,0.0,0.0,0.0,1075.84,1
1604559049.234206,247,1604559049,234205961,gps,0,1,22.338106478333334,114.26369342833334,97.088,24.2064,0.0,0.0,0.0,24.2064,0.0,0.0,0.0,387.3024,1
1604559049.434101,248,1604559049,434101104,gps,0,1,22.33810099833333,114.26369313166668,97.122,24.2064,0.0,0.0,0.0,24.2064,0.0,0.0,0.0,387.3024,1
1604559049.633645,249,1604559049,633645057,gps,0,1,22.338095953333333,114.26369341,97.126,24.2064,0.0,0.0,0.0,24.2064,0.0,0.0,0.0,387.3024,1
1604559049.833538,250,1604559049,833538055,gps,0,1,22.33808980333333,114.26369414333334,97.139,24.2064,0.0,0.0,0.0,24.2064,0.0,0.0,0.0,387.3024,1
1604559050.037274,251,1604559050,37273883,gps,0,1,22.338084391666666,114.26369447333332,97.136,24.2064,0.0,0.0,0.0,24.2064,0.0,0.0,0.0,387.3024,1
1604559050.233423,252,1604559050,233422994,gps,0,1,22.338079028333333,114.263694275,97.201,24.2064,0.0,0.0,0.0,24.2064,0.0,0.0,0.0,387.3024,1
1604559050.433099,253,1604559050,433099031,gps,0,1,22.3380733,114.26369409666668,97.292,24.2064,0.0,0.0,0.0,24.2064,0.0,0.0,0.0,387.3024,1
1604559050.633442,254,1604559050,633441925,gps,0,1,22.338068976666666,114.26369339166666,97.421,24.2064,0.0,0.0,0.0,24.2064,0.0,0.0,0.0,387.3024,1
1604559050.830701,255,1604559050,830701112,gps,0,1,22.338063793333333,114.26369268333332,97.413,50.1264,0.0,0.0,0.0,50.1264,0.0,0.0,0.0,802.0224000000001,1
1604559051.034411,256,1604559051,34410953,gps,0,1,22.33805910333333,114.26369297,97.487,50.1264,0.0,0.0,0.0,50.1264,0.0,0.0,0.0,802.0224000000001,1
1604559051.233286,257,1604559051,233285903,gps,0,1,22.338055375,114.263694,97.515,36.4816,0.0,0.0,0.0,36.4816,0.0,0.0,0.0,583.7056,1
1604559051.432523,258,1604559051,432523012,gps,0,1,22.3380521,114.26369475666668,97.505,36.4816,0.0,0.0,0.0,36.4816,0.0,0.0,0.0,583.7056,1
1604559051.631488,259,1604559051,631488084,gps,0,1,22.338048026666662,114.26369668333334,97.511,50.1264,0.0,0.0,0.0,50.1264,0.0,0.0,0.0,802.0224000000001,1
1604559051.831124,260,1604559051,831124067,gps,0,1,22.33804473833333,114.26369775833334,97.484,50.1264,0.0,0.0,0.0,50.1264,0.0,0.0,0.0,802.0224000000001,1
1604559052.034662,261,1604559052,34662008,gps,0,1,22.338042408333333,114.263698485,97.469,36.9664,0.0,0.0,0.0,36.9664,0.0,0.0,0.0,591.4624,1
1604559052.231589,262,1604559052,231589078,gps,0,1,22.338040531666667,114.26369942833334,97.453,36.9664,0.0,0.0,0.0,36.9664,0.0,0.0,0.0,591.4624,1
1604559052.43145,263,1604559052,431449890,gps,0,1,22.338039138333333,114.26370029333332,97.445,36.4816,0.0,0.0,0.0,36.4816,0.0,0.0,0.0,583.7056,1
1604559052.630735,264,1604559052,630734920,gps,0,1,22.338037441666668,114.26370346833332,97.512,36.4816,0.0,0.0,0.0,36.4816,0.0,0.0,0.0,583.7056,1
1604559052.830314,265,1604559052,830313920,gps,0,1,22.338036166666665,114.26370467333334,97.491,38.9376,0.0,0.0,0.0,38.9376,0.0,0.0,0.0,623.0016,1
1604559053.034669,266,1604559053,34668922,gps,0,1,22.33803527,114.26370614,97.459,38.9376,0.0,0.0,0.0,38.9376,0.0,0.0,0.0,623.0016,1
1604559053.230681,267,1604559053,230680942,gps,0,1,22.33803478,114.26370781,97.421,69.22240000000001,0.0,0.0,0.0,69.22240000000001,0.0,0.0,0.0,1107.5584,1
1604559053.43029,268,1604559053,430289983,gps,0,1,22.338035726666668,114.26370946666668,97.289,1158.7216,0.0,0.0,0.0,1158.7216,0.0,0.0,0.0,18539.5456,1
1604559053.63071,269,1604559053,630709886,gps,0,1,22.338035986666668,114.26371204333331,97.191,119.2464,0.0,0.0,0.0,119.2464,0.0,0.0,0.0,1907.9424,1
1604559053.824584,270,1604559053,824584007,gps,-1,1,,,,9998000100000000.0,0.0,0.0,0.0,9998000100000000.0,0.0,0.0,0.0,1.599680016e+17,0
1604559054.027758,271,1604559054,27757883,gps,-1,1,,,,9998000100000000.0,0.0,0.0,0.0,9998000100000000.0,0.0,0.0,0.0,1.599680016e+17,0
1604559054.229409,272,1604559054,229408979,gps,0,1,22.338031666666662,114.26371518166668,99.087,147.8656,0.0,0.0,0.0,147.8656,0.0,0.0,0.0,2365.8496,1
1604559054.42931,273,1604559054,429310083,gps,0,1,22.338029705,114.26371624666666,99.084,645.16,0.0,0.0,0.0,645.16,0.0,0.0,0.0,10322.56,1
1604559054.629113,274,1604559054,629112958,gps,0,1,22.33802774333333,114.26371731166668,99.08,645.16,0.0,0.0,0.0,645.16,0.0,0.0,0.0,10322.56,1
1604559054.828868,275,1604559054,828867912,gps,0,1,22.33802578333333,114.26371837666667,99.077,645.16,0.0,0.0,0.0,645.16,0.0,0.0,0.0,10322.56,1
1604559055.03235,276,1604559055,32350063,gps,0,1,22.338023845,114.26371943666666,99.111,579.8463999999999,0.0,0.0,0.0,579.8463999999999,0.0,0.0,0.0,9277.542399999998,1
1604559055.229423,277,1604559055,229423046,gps,0,1,22.338021886666667,114.2637205,99.116,579.8463999999999,0.0,0.0,0.0,579.8463999999999,0.0,0.0,0.0,9277.542399999998,1
1604559055.429041,278,1604559055,429040908,gps,0,1,22.338019925,114.263721565,99.115,645.16,0.0,0.0,0.0,645.16,0.0,0.0,0.0,10322.56,1
1604559055.629252,279,1604559055,629251956,gps,0,1,22.33802084333333,114.26372633166666,99.085,643.1296,0.0,0.0,0.0,643.1296,0.0,0.0,0.0,10290.0736,1
1604559055.828722,280,1604559055,828722000,gps,0,1,22.338021295,114.26373019166668,99.192,245.8624,0.0,0.0,0.0,245.8624,0.0,0.0,0.0,3933.7984,1
1604559056.033025,281,1604559056,33025026,gps,0,1,22.338034203333333,114.26372360333332,99.651,245.8624,0.0,0.0,0.0,245.8624,0.0,0.0,0.0,3933.7984,1
1604559056.23163,282,1604559056,231630086,gps,0,1,22.33803635,114.26371925,99.878,245.8624,0.0,0.0,0.0,245.8624,0.0,0.0,0.0,3933.7984,1
1604559056.431763,283,1604559056,431762933,gps,0,1,22.33804989833333,114.26373199,100.043,242.1136,0.0,0.0,0.0,242.1136,0.0,0.0,0.0,3873.8176,1
1604559056.631971,284,1604559056,631970882,gps,0,1,22.33806401,114.26374090666668,100.165,182.7904,0.0,0.0,0.0,182.7904,0.0,0.0,0.0,2924.6464,1
1604559056.830972,285,1604559056,830971956,gps,0,1,22.338065165,114.26374168833334,100.189,225.0,0.0,0.0,0.0,225.0,0.0,0.0,0.0,3600.0,1
1604559057.034253,286,1604559057,34252882,gps,0,1,22.33805184333333,114.26373630166668,100.151,225.0,0.0,0.0,0.0,225.0,0.0,0.0,0.0,3600.0,1
1604559057.231573,287,1604559057,231573104,gps,0,1,22.33803206,114.26372761333332,100.118,225.0,0.0,0.0,0.0,225.0,0.0,0.0,0.0,3600.0,1
1604559057.431612,288,1604559057,431612014,gps,0,1,22.33801833,114.26372567666668,100.153,225.0,0.0,0.0,0.0,225.0,0.0,0.0,0.0,3600.0,1
1604559057.631774,289,1604559057,631773948,gps,0,1,22.338010471666667,114.26372154666667,100.204,225.0,0.0,0.0,0.0,225.0,0.0,0.0,0.0,3600.0,1
1604559057.833498,290,1604559057,833498001,gps,0,1,22.338003298333334,114.26371957333332,100.268,225.0,0.0,0.0,0.0,225.0,0.0,0.0,0.0,3600.0,1
1604559058.0348,291,1604559058,34800052,gps,0,1,22.33799733,114.26371815166668,100.309,225.0,0.0,0.0,0.0,225.0,0.0,0.0,0.0,3600.0,1
1604559058.232218,292,1604559058,232218027,gps,0,1,22.337991908333333,114.26371754833332,100.359,225.0,0.0,0.0,0.0,225.0,0.0,0.0,0.0,3600.0,1
1604559058.431747,293,1604559058,431746959,gps,0,1,22.337986305,114.263716365,100.413,225.0,0.0,0.0,0.0,225.0,0.0,0.0,0.0,3600.0,1
1604559058.631719,294,1604559058,631719112,gps,0,1,22.337980521666665,114.26371748333334,100.508,225.0,0.0,0.0,0.0,225.0,0.0,0.0,0.0,3600.0,1
1604559058.831141,295,1604559058,831140995,gps,0,1,22.337973658333333,114.263717965,100.631,225.0,0.0,0.0,0.0,225.0,0.0,0.0,0.0,3600.0,1
1604559059.035371,296,1604559059,35371065,gps,0,1,22.33796232,114.263734015,101.448,225.0,0.0,0.0,0.0,225.0,0.0,0.0,0.0,3600.0,1
1604559059.232088,297,1604559059,232088088,gps,0,1,22.337953681666665,114.263741335,101.865,225.0,0.0,0.0,0.0,225.0,0.0,0.0,0.0,3600.0,1
1604559059.431402,298,1604559059,431401968,gps,0,1,22.33794664,114.26374542,102.085,225.0,0.0,0.0,0.0,225.0,0.0,0.0,0.0,3600.0,1
1604559059.632076,299,1604559059,632076025,gps,0,1,22.33793981833333,114.263748165,102.297,225.0,0.0,0.0,0.0,225.0,0.0,0.0,0.0,3600.0,1
1604559059.829372,300,1604559059,829371929,gps,0,1,22.33793276333333,114.26375147333331,102.502,225.0,0.0,0.0,0.0,225.0,0.0,0.0,0.0,3600.0,1
1604559060.033344,301,1604559060,33344030,gps,0,1,22.337925828333333,114.26375399666668,102.73,225.0,0.0,0.0,0.0,225.0,0.0,0.0,0.0,3600.0,1
1604559060.231631,302,1604559060,231631040,gps,0,1,22.337919801666665,114.26375656166668,102.941,225.0,0.0,0.0,0.0,225.0,0.0,0.0,0.0,3600.0,1
1604559060.431384,303,1604559060,431384086,gps,0,1,22.33791383,114.263758105,103.098,147.8656,0.0,0.0,0.0,147.8656,0.0,0.0,0.0,2365.8496,1
1604559060.63233,304,1604559060,632329940,gps,0,1,22.33790773833333,114.263761675,103.451,147.8656,0.0,0.0,0.0,147.8656,0.0,0.0,0.0,2365.8496,1
1604559060.830782,305,1604559060,830781936,gps,0,1,22.337902395,114.26376279666668,103.631,147.8656,0.0,0.0,0.0,147.8656,0.0,0.0,0.0,2365.8496,1
1604559061.034631,306,1604559061,34631013,gps,0,1,22.337895566666667,114.26376375333334,103.784,147.8656,0.0,0.0,0.0,147.8656,0.0,0.0,0.0,2365.8496,1
1604559061.231676,307,1604559061,231676101,gps,0,1,22.3378899,114.26376438666668,103.932,147.8656,0.0,0.0,0.0,147.8656,0.0,0.0,0.0,2365.8496,1
1604559061.431596,308,1604559061,431596040,gps,0,1,22.33788417333333,114.26376501333333,104.137,147.8656,0.0,0.0,0.0,147.8656,0.0,0.0,0.0,2365.8496,1
1604559061.631264,309,1604559061,631263971,gps,0,1,22.337880145,114.26376582,104.553,147.8656,0.0,0.0,0.0,147.8656,0.0,0.0,0.0,2365.8496,1
1604559061.831765,310,1604559061,831764936,gps,0,1,22.337874121666665,114.26376726833334,104.848,147.8656,0.0,0.0,0.0,147.8656,0.0,0.0,0.0,2365.8496,1
1604559062.035351,311,1604559062,35351037,gps,0,1,22.33786928,114.26377003833332,105.128,147.8656,0.0,0.0,0.0,147.8656,0.0,0.0,0.0,2365.8496,1
1604559062.231728,312,1604559062,231728076,gps,0,1,22.33786478,114.26377148,105.379,147.8656,0.0,0.0,0.0,147.8656,0.0,0.0,0.0,2365.8496,1
1604559062.432509,313,1604559062,432508945,gps,0,1,22.33785961333333,114.26377313666669,105.651,146.8944,0.0,0.0,0.0,146.8944,0.0,0.0,0.0,2350.3104,1
1604559062.632014,314,1604559062,632014036,gps,0,1,22.337855925,114.263775925,105.819,146.8944,0.0,0.0,0.0,146.8944,0.0,0.0,0.0,2350.3104,1
1604559062.829651,315,1604559062,829651117,gps,0,1,22.337853831666667,114.26377886333331,105.999,146.8944,0.0,0.0,0.0,146.8944,0.0,0.0,0.0,2350.3104,1
1604559063.034077,316,1604559063,34076929,gps,0,1,22.33784938166667,114.263778315,106.115,146.8944,0.0,0.0,0.0,146.8944,0.0,0.0,0.0,2350.3104,1
1604559063.231831,317,1604559063,231831073,gps,0,1,22.337845826666666,114.26377866166666,106.205,146.8944,0.0,0.0,0.0,146.8944,0.0,0.0,0.0,2350.3104,1
1604559063.431669,318,1604559063,431668996,gps,0,1,22.337842385,114.26377871833331,106.195,146.8944,0.0,0.0,0.0,146.8944,0.0,0.0,0.0,2350.3104,1
1604559063.631483,319,1604559063,631483078,gps,0,1,22.3378373,114.26377837166666,106.162,146.8944,0.0,0.0,0.0,146.8944,0.0,0.0,0.0,2350.3104,1
1604559063.831308,320,1604559063,831307888,gps,0,1,22.33783241833333,114.26377928666666,106.199,146.8944,0.0,0.0,0.0,146.8944,0.0,0.0,0.0,2350.3104,1
1604559064.034636,321,1604559064,34636020,gps,0,1,22.337828475,114.26378111166666,106.295,146.8944,0.0,0.0,0.0,146.8944,0.0,0.0,0.0,2350.3104,1
1604559064.231808,322,1604559064,231807947,gps,0,1,22.337823845,114.26378350166668,106.426,146.8944,0.0,0.0,0.0,146.8944,0.0,0.0,0.0,2350.3104,1
1604559064.431384,323,1604559064,431384086,gps,0,1,22.33781948833333,114.263784435,106.272,146.8944,0.0,0.0,0.0,146.8944,0.0,0.0,0.0,2350.3104,1
1604559064.63152,324,1604559064,631520032,gps,0,1,22.337815218333333,114.26378495166666,106.283,146.8944,0.0,0.0,0.0,146.8944,0.0,0.0,0.0,2350.3104,1
1604559064.831932,325,1604559064,831932067,gps,0,1,22.33781065333333,114.263785515,106.435,146.8944,0.0,0.0,0.0,146.8944,0.0,0.0,0.0,2350.3104,1
1604559065.03536,326,1604559065,35360097,gps,0,1,22.33780593333333,114.26378609833333,106.321,146.8944,0.0,0.0,0.0,146.8944,0.0,0.0,0.0,2350.3104,1
1604559065.23176,327,1604559065,231760025,gps,0,1,22.337802066666665,114.263787325,106.389,146.8944,0.0,0.0,0.0,146.8944,0.0,0.0,0.0,2350.3104,1
1604559065.431132,328,1604559065,431132078,gps,0,1,22.337798521666667,114.26378917666666,106.514,146.8944,0.0,0.0,0.0,146.8944,0.0,0.0,0.0,2350.3104,1
1604559065.631177,329,1604559065,631176948,gps,0,1,22.337794866666663,114.26379132166667,106.652,146.8944,0.0,0.0,0.0,146.8944,0.0,0.0,0.0,2350.3104,1
1604559065.832149,330,1604559065,832149028,gps,0,1,22.3377905,114.26379387833332,106.756,146.8944,0.0,0.0,0.0,146.8944,0.0,0.0,0.0,2350.3104,1
1604559066.034447,331,1604559066,34446954,gps,0,1,22.337785406666665,114.26379544666666,106.775,146.8944,0.0,0.0,0.0,146.8944,0.0,0.0,0.0,2350.3104,1
1604559066.232435,332,1604559066,232434988,gps,0,1,22.337780625,114.26379653333332,106.809,146.8944,0.0,0.0,0.0,146.8944,0.0,0.0,0.0,2350.3104,1
1604559066.431315,333,1604559066,431314945,gps,0,1,22.33777620833333,114.263798255,106.923,182.7904,0.0,0.0,0.0,182.7904,0.0,0.0,0.0,2924.6464,1
1604559066.630944,334,1604559066,630944013,gps,0,1,22.33777214333333,114.26379960833331,106.968,182.7904,0.0,0.0,0.0,182.7904,0.0,0.0,0.0,2924.6464,1
1604559066.830899,335,1604559066,830899000,gps,0,1,22.337769796666667,114.26380160333332,107.085,101.6064,0.0,0.0,0.0,101.6064,0.0,0.0,0.0,1625.7024,1
1604559067.033765,336,1604559067,33765077,gps,0,1,22.337766023333334,114.26380048,107.105,101.6064,0.0,0.0,0.0,101.6064,0.0,0.0,0.0,1625.7024,1
1604559067.23139,337,1604559067,231389999,gps,0,1,22.337764471666667,114.26380437666668,107.19,101.6064,0.0,0.0,0.0,101.6064,0.0,0.0,0.0,1625.7024,1
1604559067.430808,338,1604559067,430808067,gps,0,1,22.33775781,114.26380510166666,107.398,101.6064,0.0,0.0,0.0,101.6064,0.0,0.0,0.0,1625.7024,1
1604559067.630285,339,1604559067,630285024,gps,0,1,22.337753431666663,114.26380432666669,107.657,101.6064,0.0,0.0,0.0,101.6064,0.0,0.0,0.0,1625.7024,1
1604559067.829584,340,1604559067,829583883,gps,0,1,22.337747106666665,114.2638029,107.87,101.6064,0.0,0.0,0.0,101.6064,0.0,0.0,0.0,1625.7024,1
1604559068.032528,341,1604559068,32527923,gps,0,1,22.337742346666666,114.26380134,108.133,173.1856,0.0,0.0,0.0,173.1856,0.0,0.0,0.0,2770.9696,1
1604559068.230313,342,1604559068,230313062,gps,0,1,22.337736191666668,114.26379835833332,108.21,173.1856,0.0,0.0,0.0,173.1856,0.0,0.0,0.0,2770.9696,1
1604559068.430104,343,1604559068,430104017,gps,0,1,22.337730526666668,114.26379520833332,108.373,101.6064,0.0,0.0,0.0,101.6064,0.0,0.0,0.0,1625.7024,1
1604559068.629708,344,1604559068,629708051,gps,0,1,22.337724036666668,114.26379448,108.585,254.7216,0.0,0.0,0.0,254.7216,0.0,0.0,0.0,4075.5456,1
1604559068.82921,345,1604559068,829210042,gps,0,1,22.337717396666665,114.26379457,108.538,254.7216,0.0,0.0,0.0,254.7216,0.0,0.0,0.0,4075.5456,1
1604559069.033388,346,1604559069,33387899,gps,0,1,22.337712643333333,114.26379546166666,108.574,174.23999999999998,0.0,0.0,0.0,174.23999999999998,0.0,0.0,0.0,2787.84,1
1604559069.229789,347,1604559069,229789018,gps,0,1,22.337708425,114.26379672833332,108.601,174.23999999999998,0.0,0.0,0.0,174.23999999999998,0.0,0.0,0.0,2787.84,1
1604559069.428693,348,1604559069,428693056,gps,0,1,22.337704045,114.26379847333334,108.633,173.1856,0.0,0.0,0.0,173.1856,0.0,0.0,0.0,2770.9696,1
1604559069.628849,349,1604559069,628849029,gps,0,1,22.337701783333333,114.26380229666668,108.652,173.1856,0.0,0.0,0.0,173.1856,0.0,0.0,0.0,2770.9696,1
1604559069.828029,350,1604559069,828028917,gps,0,1,22.337696431666668,114.263806405,108.683,173.1856,0.0,0.0,0.0,173.1856,0.0,0.0,0.0,2770.9696,1
1604559070.031459,351,1604559070,31459093,gps,0,1,22.337693105,114.26381028166666,108.707,173.1856,0.0,0.0,0.0,173.1856,0.0,0.0,0.0,2770.9696,1
1604559070.228713,352,1604559070,228713035,gps,0,1,22.337689583333333,114.263814785,108.729,173.1856,0.0,0.0,0.0,173.1856,0.0,0.0,0.0,2770.9696,1
1604559070.429524,353,1604559070,429523944,gps,0,1,22.337686541666667,114.26381974333331,108.75,173.1856,0.0,0.0,0.0,173.1856,0.0,0.0,0.0,2770.9696,1
1604559070.629443,354,1604559070,629442930,gps,0,1,22.337683493333333,114.26382527333334,108.769,173.1856,0.0,0.0,0.0,173.1856,0.0,0.0,0.0,2770.9696,1
1604559070.828428,355,1604559070,828428030,gps,0,1,22.337681808333333,114.26383118833331,108.794,173.1856,0.0,0.0,0.0,173.1856,0.0,0.0,0.0,2770.9696,1
1604559071.031179,356,1604559071,31178951,gps,0,1,22.337678168333333,114.263836575,108.827,530.8416,0.0,0.0,0.0,530.8416,0.0,0.0,0.0,8493.4656,1
1604559071.228115,357,1604559071,228115081,gps,0,1,22.33767342333333,114.26384339333332,108.856,530.8416,0.0,0.0,0.0,530.8416,0.0,0.0,0.0,8493.4656,1
1604559071.427268,358,1604559071,427268028,gps,0,1,22.337670611666667,114.263847775,108.906,530.8416,0.0,0.0,0.0,530.8416,0.0,0.0,0.0,8493.4656,1
1604559071.623391,359,1604559071,623390913,gps,-1,1,,,,9998000100000000.0,0.0,0.0,0.0,9998000100000000.0,0.0,0.0,0.0,1.599680016e+17,0
1604559071.822755,360,1604559071,822755098,gps,-1,1,,,,9998000100000000.0,0.0,0.0,0.0,9998000100000000.0,0.0,0.0,0.0,1.599680016e+17,0
1604559072.026256,361,1604559072,26256084,gps,-1,1,,,,9998000100000000.0,0.0,0.0,0.0,9998000100000000.0,0.0,0.0,0.0,1.599680016e+17,0
1604559072.224107,362,1604559072,224107027,gps,-1,1,,,,9998000100000000.0,0.0,0.0,0.0,9998000100000000.0,0.0,0.0,0.0,1.599680016e+17,0
1604559072.424175,363,1604559072,424175024,gps,-1,1,,,,9998000100000000.0,0.0,0.0,0.0,9998000100000000.0,0.0,0.0,0.0,1.599680016e+17,0
1604559072.62403,364,1604559072,624030113,gps,-1,1,,,,9998000100000000.0,0.0,0.0,0.0,9998000100000000.0,0.0,0.0,0.0,1.599680016e+17,0
1604559072.823513,365,1604559072,823513031,gps,-1,1,,,,9998000100000000.0,0.0,0.0,0.0,9998000100000000.0,0.0,0.0,0.0,1.599680016e+17,0
1604559073.027455,366,1604559073,27455091,gps,-1,1,,,,9998000100000000.0,0.0,0.0,0.0,9998000100000000.0,0.0,0.0,0.0,1.599680016e+17,0
1604559073.224531,367,1604559073,224530935,gps,-1,1,,,,9998000100000000.0,0.0,0.0,0.0,9998000100000000.0,0.0,0.0,0.0,1.599680016e+17,0
1604559073.423139,368,1604559073,423139095,gps,-1,1,,,,9998000100000000.0,0.0,0.0,0.0,9998000100000000.0,0.0,0.0,0.0,1.599680016e+17,0
1604559073.622964,369,1604559073,622963905,gps,-1,1,,,,9998000100000000.0,0.0,0.0,0.0,9998000100000000.0,0.0,0.0,0.0,1.599680016e+17,0
1604559073.823223,370,1604559073,823223114,gps,-1,1,,,,9998000100000000.0,0.0,0.0,0.0,9998000100000000.0,0.0,0.0,0.0,1.599680016e+17,0
1604559074.027584,371,1604559074,27584075,gps,-1,1,,,,9998000100000000.0,0.0,0.0,0.0,9998000100000000.0,0.0,0.0,0.0,1.599680016e+17,0
1604559074.223918,372,1604559074,223917961,gps,-1,1,,,,9998000100000000.0,0.0,0.0,0.0,9998000100000000.0,0.0,0.0,0.0,1.599680016e+17,0
1604559074.424282,373,1604559074,424282073,gps,-1,1,,,,9998000100000000.0,0.0,0.0,0.0,9998000100000000.0,0.0,0.0,0.0,1.599680016e+17,0
1604559074.623217,374,1604559074,623217105,gps,-1,1,,,,9998000100000000.0,0.0,0.0,0.0,9998000100000000.0,0.0,0.0,0.0,1.599680016e+17,0
1604559074.822859,375,1604559074,822859048,gps,-1,1,,,,9998000100000000.0,0.0,0.0,0.0,9998000100000000.0,0.0,0.0,0.0,1.599680016e+17,0
1604559075.026306,376,1604559075,26305913,gps,-1,1,,,,9998000100000000.0,0.0,0.0,0.0,9998000100000000.0,0.0,0.0,0.0,1.599680016e+17,0
1604559075.223582,377,1604559075,223582029,gps,-1,1,,,,9998000100000000.0,0.0,0.0,0.0,9998000100000000.0,0.0,0.0,0.0,1.599680016e+17,0
1604559075.42332,378,1604559075,423320055,gps,-1,1,,,,9998000100000000.0,0.0,0.0,0.0,9998000100000000.0,0.0,0.0,0.0,1.599680016e+17,0
1604559075.622905,379,1604559075,622905015,gps,-1,1,,,,9998000100000000.0,0.0,0.0,0.0,9998000100000000.0,0.0,0.0,0.0,1.599680016e+17,0
1604559075.822749,380,1604559075,822748899,gps,-1,1,,,,9998000100000000.0,0.0,0.0,0.0,9998000100000000.0,0.0,0.0,0.0,1.599680016e+17,0
1604559076.02627,381,1604559076,26269912,gps,-1,1,,,,9998000100000000.0,0.0,0.0,0.0,9998000100000000.0,0.0,0.0,0.0,1.599680016e+17,0
1604559076.223032,382,1604559076,223031997,gps,-1,1,,,,9998000100000000.0,0.0,0.0,0.0,9998000100000000.0,0.0,0.0,0.0,1.599680016e+17,0
1604559076.423609,383,1604559076,423609018,gps,-1,1,,,,9998000100000000.0,0.0,0.0,0.0,9998000100000000.0,0.0,0.0,0.0,1.599680016e+17,0
1604559076.622806,384,1604559076,622806072,gps,-1,1,,,,9998000100000000.0,0.0,0.0,0.0,9998000100000000.0,0.0,0.0,0.0,1.599680016e+17,0
1604559076.822283,385,1604559076,822283029,gps,-1,1,,,,9998000100000000.0,0.0,0.0,0.0,9998000100000000.0,0.0,0.0,0.0,1.599680016e+17,0
1604559077.026334,386,1604559077,26334047,gps,-1,1,,,,9998000100000000.0,0.0,0.0,0.0,9998000100000000.0,0.0,0.0,0.0,1.599680016e+17,0
1604559077.223308,387,1604559077,223308086,gps,-1,1,,,,9998000100000000.0,0.0,0.0,0.0,9998000100000000.0,0.0,0.0,0.0,1.599680016e+17,0
1604559077.423395,388,1604559077,423394918,gps,-1,1,,,,9998000100000000.0,0.0,0.0,0.0,9998000100000000.0,0.0,0.0,0.0,1.599680016e+17,0
1604559077.622051,389,1604559077,622051000,gps,-1,1,,,,9998000100000000.0,0.0,0.0,0.0,9998000100000000.0,0.0,0.0,0.0,1.599680016e+17,0
1604559077.821775,390,1604559077,821774959,gps,-1,1,,,,9998000100000000.0,0.0,0.0,0.0,9998000100000000.0,0.0,0.0,0.0,1.599680016e+17,0
1604559078.025336,391,1604559078,25336027,gps,-1,1,,,,9998000100000000.0,0.0,0.0,0.0,9998000100000000.0,0.0,0.0,0.0,1.599680016e+17,0
1604559078.22273,392,1604559078,222729921,gps,-1,1,,,,9998000100000000.0,0.0,0.0,0.0,9998000100000000.0,0.0,0.0,0.0,1.599680016e+17,0
1604559078.422104,393,1604559078,422103881,gps,-1,1,,,,9998000100000000.0,0.0,0.0,0.0,9998000100000000.0,0.0,0.0,0.0,1.599680016e+17,0
1604559078.622549,394,1604559078,622549057,gps,-1,1,,,,9998000100000000.0,0.0,0.0,0.0,9998000100000000.0,0.0,0.0,0.0,1.599680016e+17,0
1604559078.822691,395,1604559078,822690963,gps,-1,1,,,,9998000100000000.0,0.0,0.0,0.0,9998000100000000.0,0.0,0.0,0.0,1.599680016e+17,0
1604559079.025947,396,1604559079,25947093,gps,-1,1,,,,9998000100000000.0,0.0,0.0,0.0,9998000100000000.0,0.0,0.0,0.0,1.599680016e+17,0
1604559079.222854,397,1604559079,222853899,gps,-1,1,,,,9998000100000000.0,0.0,0.0,0.0,9998000100000000.0,0.0,0.0,0.0,1.599680016e+17,0
1604559079.422726,398,1604559079,422725915,gps,-1,1,,,,9998000100000000.0,0.0,0.0,0.0,9998000100000000.0,0.0,0.0,0.0,1.599680016e+17,0
1604559079.622898,399,1604559079,622898101,gps,-1,1,,,,9998000100000000.0,0.0,0.0,0.0,9998000100000000.0,0.0,0.0,0.0,1.599680016e+17,0
1604559079.822055,400,1604559079,822055101,gps,-1,1,,,,9998000100000000.0,0.0,0.0,0.0,9998000100000000.0,0.0,0.0,0.0,1.599680016e+17,0
1604559080.026378,401,1604559080,26377916,gps,-1,1,,,,9998000100000000.0,0.0,0.0,0.0,9998000100000000.0,0.0,0.0,0.0,1.599680016e+17,0
1604559080.223025,402,1604559080,223025083,gps,-1,1,,,,9998000100000000.0,0.0,0.0,0.0,9998000100000000.0,0.0,0.0,0.0,1.599680016e+17,0
1604559080.42223,403,1604559080,422230005,gps,-1,1,,,,9998000100000000.0,0.0,0.0,0.0,9998000100000000.0,0.0,0.0,0.0,1.599680016e+17,0
1604559080.62202,404,1604559080,622020006,gps,-1,1,,,,9998000100000000.0,0.0,0.0,0.0,9998000100000000.0,0.0,0.0,0.0,1.599680016e+17,0
1604559080.820949,405,1604559080,820949077,gps,-1,1,,,,9998000100000000.0,0.0,0.0,0.0,9998000100000000.0,0.0,0.0,0.0,1.599680016e+17,0
1604559081.02555,406,1604559081,25549888,gps,-1,1,,,,9998000100000000.0,0.0,0.0,0.0,9998000100000000.0,0.0,0.0,0.0,1.599680016e+17,0
1604559081.223189,407,1604559081,223189115,gps,-1,1,,,,9998000100000000.0,0.0,0.0,0.0,9998000100000000.0,0.0,0.0,0.0,1.599680016e+17,0
1604559081.42208,408,1604559081,422080039,gps,-1,1,,,,9998000100000000.0,0.0,0.0,0.0,9998000100000000.0,0.0,0.0,0.0,1.599680016e+17,0
1604559081.62213,409,1604559081,622129917,gps,-1,1,,,,9998000100000000.0,0.0,0.0,0.0,9998000100000000.0,0.0,0.0,0.0,1.599680016e+17,0
1604559081.821896,410,1604559081,821896076,gps,-1,1,,,,9998000100000000.0,0.0,0.0,0.0,9998000100000000.0,0.0,0.0,0.0,1.599680016e+17,0
1604559082.025836,411,1604559082,25835990,gps,-1,1,,,,9998000100000000.0,0.0,0.0,0.0,9998000100000000.0,0.0,0.0,0.0,1.599680016e+17,0
1604559082.222321,412,1604559082,222321033,gps,-1,1,,,,9998000100000000.0,0.0,0.0,0.0,9998000100000000.0,0.0,0.0,0.0,1.599680016e+17,0
1604559082.422163,413,1604559082,422163009,gps,-1,1,,,,9998000100000000.0,0.0,0.0,0.0,9998000100000000.0,0.0,0.0,0.0,1.599680016e+17,0
1604559082.622707,414,1604559082,622706890,gps,-1,1,,,,9998000100000000.0,0.0,0.0,0.0,9998000100000000.0,0.0,0.0,0.0,1.599680016e+17,0
1604559082.821805,415,1604559082,821805000,gps,-1,1,,,,9998000100000000.0,0.0,0.0,0.0,9998000100000000.0,0.0,0.0,0.0,1.599680016e+17,0
1604559083.026104,416,1604559083,26103973,gps,-1,1,,,,9998000100000000.0,0.0,0.0,0.0,9998000100000000.0,0.0,0.0,0.0,1.599680016e+17,0
1604559083.22235,417,1604559083,222349882,gps,-1,1,,,,9998000100000000.0,0.0,0.0,0.0,9998000100000000.0,0.0,0.0,0.0,1.599680016e+17,0
1604559083.422025,418,1604559083,422024965,gps,-1,1,,,,9998000100000000.0,0.0,0.0,0.0,9998000100000000.0,0.0,0.0,0.0,1.599680016e+17,0
1604559083.622158,419,1604559083,622158050,gps,-1,1,,,,9998000100000000.0,0.0,0.0,0.0,9998000100000000.0,0.0,0.0,0.0,1.599680016e+17,0
1604559083.821055,420,1604559083,821054935,gps,-1,1,,,,9998000100000000.0,0.0,0.0,0.0,9998000100000000.0,0.0,0.0,0.0,1.599680016e+17,0
1604559084.024428,421,1604559084,24427890,gps,-1,1,,,,9998000100000000.0,0.0,0.0,0.0,9998000100000000.0,0.0,0.0,0.0,1.599680016e+17,0
1604559084.222405,422,1604559084,222404956,gps,-1,1,,,,9998000100000000.0,0.0,0.0,0.0,9998000100000000.0,0.0,0.0,0.0,1.599680016e+17,0
1604559084.422345,423,1604559084,422344923,gps,-1,1,,,,9998000100000000.0,0.0,0.0,0.0,9998000100000000.0,0.0,0.0,0.0,1.599680016e+17,0
1604559084.62247,424,1604559084,622469902,gps,-1,1,,,,9998000100000000.0,0.0,0.0,0.0,9998000100000000.0,0.0,0.0,0.0,1.599680016e+17,0
1604559084.821987,425,1604559084,821986913,gps,-1,1,,,,9998000100000000.0,0.0,0.0,0.0,9998000100000000.0,0.0,0.0,0.0,1.599680016e+17,0
1604559085.026819,426,1604559085,26818990,gps,-1,1,,,,9998000100000000.0,0.0,0.0,0.0,9998000100000000.0,0.0,0.0,0.0,1.599680016e+17,0
1604559085.223421,427,1604559085,223421096,gps,-1,1,,,,9998000100000000.0,0.0,0.0,0.0,9998000100000000.0,0.0,0.0,0.0,1.599680016e+17,0
1604559085.42208,428,1604559085,422080039,gps,-1,1,,,,9998000100000000.0,0.0,0.0,0.0,9998000100000000.0,0.0,0.0,0.0,1.599680016e+17,0
1604559085.621442,429,1604559085,621442079,gps,-1,1,,,,9998000100000000.0,0.0,0.0,0.0,9998000100000000.0,0.0,0.0,0.0,1.599680016e+17,0
1604559085.82104,430,1604559085,821039915,gps,-1,1,,,,9998000100000000.0,0.0,0.0,0.0,9998000100000000.0,0.0,0.0,0.0,1.599680016e+17,0
1604559086.025424,431,1604559086,25424003,gps,-1,1,,,,9998000100000000.0,0.0,0.0,0.0,9998000100000000.0,0.0,0.0,0.0,1.599680016e+17,0
1604559086.223332,432,1604559086,223331928,gps,-1,1,,,,9998000100000000.0,0.0,0.0,0.0,9998000100000000.0,0.0,0.0,0.0,1.599680016e+17,0
1604559086.423276,433,1604559086,423275947,gps,-1,1,,,,9998000100000000.0,0.0,0.0,0.0,9998000100000000.0,0.0,0.0,0.0,1.599680016e+17,0
1604559086.62281,434,1604559086,622809886,gps,-1,1,,,,9998000100000000.0,0.0,0.0,0.0,9998000100000000.0,0.0,0.0,0.0,1.599680016e+17,0
1604559086.821077,435,1604559086,821077108,gps,-1,1,,,,9998000100000000.0,0.0,0.0,0.0,9998000100000000.0,0.0,0.0,0.0,1.599680016e+17,0
1604559087.024934,436,1604559087,24934053,gps,-1,1,,,,9998000100000000.0,0.0,0.0,0.0,9998000100000000.0,0.0,0.0,0.0,1.599680016e+17,0
1604559087.223102,437,1604559087,223102092,gps,-1,1,,,,9998000100000000.0,0.0,0.0,0.0,9998000100000000.0,0.0,0.0,0.0,1.599680016e+17,0
1604559087.422057,438,1604559087,422056913,gps,-1,1,,,,9998000100000000.0,0.0,0.0,0.0,9998000100000000.0,0.0,0.0,0.0,1.599680016e+17,0
1604559087.622172,439,1604559087,622172117,gps,-1,1,,,,9998000100000000.0,0.0,0.0,0.0,9998000100000000.0,0.0,0.0,0.0,1.599680016e+17,0
1604559087.821741,440,1604559087,821741104,gps,-1,1,,,,9998000100000000.0,0.0,0.0,0.0,9998000100000000.0,0.0,0.0,0.0,1.599680016e+17,0
1604559088.026058,441,1604559088,26057958,gps,-1,1,,,,9998000100000000.0,0.0,0.0,0.0,9998000100000000.0,0.0,0.0,0.0,1.599680016e+17,0
